{
   "type":"FeatureCollection",
   "features":[
      {
         "type":"Feature",
         "properties":{
            "marker-color":"#7e7e7e",
            "marker-size":"medium",
            "marker-symbol":"",
            "type":"campsite",
            "name":"Dunedin Holiday Park"
         },
         "geometry":{
            "type":"Point",
            "coordinates":[
               170.5153065919876,
               -45.90540437585189
            ]
         }
      },
      {
         "type":"Feature",
         "properties":{
            "marker-color":"#7e7e7e",
            "marker-size":"medium",
            "marker-symbol":"",
            "name":"Forbury Park Raceway",
            "type":"landmark"
         },
         "geometry":{
            "type":"Point",
            "coordinates":[
               170.497148,
               -45.907297
            ]
         }
      },
      {
         "type":"Feature",
         "properties":{
            "marker-color":"#7e7e7e",
            "marker-size":"medium",
            "marker-symbol":"",
            "name":"The Octagon",
            "type":"landmark"
         },
         "geometry":{
            "type":"Point",
            "coordinates":[
               170.503821,
               -45.874398
            ]
         }
      },
      {
         "type":"Feature",
         "properties":{
            "marker-color":"#7e7e7e",
            "marker-size":"medium",
            "marker-symbol":"triangle",
            "name":"St Clair Beach",
            "type":"landmark"
         },
         "geometry":{
            "type":"Point",
            "coordinates":[
               170.49052566289902,
               -45.911734850052895
            ]
         }
      },
      {
         "type":"Feature",
         "properties":{
            "marker-color":"#7e7e7e",
            "marker-size":"medium",
            "marker-symbol":"",
            "name":"Hot Water Pool",
            "type":"landmark"
         },
         "geometry":{
            "type":"Point",
            "coordinates":[
               170.48803120851517,
               -45.913724171912456
            ]
         }
      },
      {
         "type":"Feature",
         "properties":{
            "marker-color":"#7e7e7e",
            "marker-size":"medium",
            "marker-symbol":"",
            "type":"restaurant",
            "name":"Esplanade"
         },
         "geometry":{
            "type":"Point",
            "coordinates":[
               170.49030303955075,
               -45.911675131971606
            ]
         }
      },
      {
         "type":"Feature",
         "properties":{
            "marker-color":"#7e7e7e",
            "marker-size":"medium",
            "marker-symbol":"",
            "type":"restaurant",
            "name":"Starfish Cafe"
         },
         "geometry":{
            "type":"Point",
            "coordinates":[
               170.49004,
               -45.911279
            ]
         }
      },
      {
         "type":"Feature",
         "properties":{
            "marker-color":"#7e7e7e",
            "marker-size":"medium",
            "marker-symbol":"",
            "type":"restaurant",
            "name":"Spirit House Restaurant"
         },
         "geometry":{
            "type":"Point",
            "coordinates":[
               170.489761,
               -45.911697
            ]
         }
      }
   ]
}